[
    {
        "id": "altrincham-cresta-court",
        "location": "ALTRINCHAM",
        "venue": "CRESTA COURT HOTEL",
        "mapUrl": "https://www.google.com/maps/search/?api=1&query=Cresta+Court+Hotel+Altrincham+UK",
        "lat": 53.3906,
        "lng": -2.35070
    },
    {
        "id": "bournemouth-roundhouse",
        "location": "BOURNEMOUTH",
        "venue": "ROUNDHOUSE",
        "mapUrl": "https://www.google.com/maps/search/?api=1&query=Roundhouse+Bournemouth+UK",
        "lat": 50.7192,
        "lng": -1.8808
    },
    {
        "id": "cheshunt-marriott-delta",
        "location": "CHESHUNT",
        "venue": "MARRIOTT DELTA HOTEL",
        "mapUrl": "https://www.google.com/maps/search/?api=1&query=Marriott+Delta+Hotel+Cheshunt+UK",
        "lat": 51.7031,
        "lng": -0.0356
    },
    {
        "id": "chichester-park-hotel",
        "location": "CHICHESTER",
        "venue": "PARK HOTEL",
        "mapUrl": "https://www.google.com/maps/search/?api=1&query=Park+Hotel+Chichester+UK",
        "lat": 50.8376,
        "lng": -0.7749
    },
    {
        "id": "portsmouth-royal-beach",
        "location": "PORTSMOUTH",
        "venue": "ROYAL BEACH",
        "mapUrl": "https://www.google.com/maps/search/?api=1&query=Royal+Beach+Portsmouth+UK",
        "lat": 50.7892,
        "lng": -1.0943
    },
    {
        "id": "rhoose-holiday-inn-carfiff-airport",
        "location": "RHOOSE",
        "venue": "HOLIDAY INN CARDIFF AIRPORT",
        "mapUrl": "https://www.google.com/maps/search/?api=1&query=Holiday+Inn+Cardiff+Airport",
        "lat": 51.3979,
        "lng": -3.3336
    },
    {
        "id": "southampton-highfield-house",
        "location": "SOUTHAMPTON",
        "venue": "HIGHFIELD HOUSE HOTEL",
        "mapUrl": "https://www.google.com/maps/search/?api=1&query=Southampton+Highfield+House+Hotel",
        "lat": 50.9277,
        "lng": -1.3916
    },
    {
        "id": "warwick-county-council-offices",
        "location": "WARWICK",
        "venue": "COUNTY COUNCIL OFFICES",
        "mapUrl": "https://www.google.com/maps/place/Warwickshire+County+Council/@52.2826",
        "lat": 52.2825,
        "lng": -1.5902
    },
    {
        "id": "blackpool-britannia-metropole",
        "location": "BLACKPOOL",
        "venue": "BRITANNIA METROPOLE",
        "mapUrl": "https://www.google.com/maps/search/?api=1&query=Britannia+Metropole+Blackpool+UK",
        "lat": 53.8175,
        "lng": -3.0518
    },
    {
        "id": "cannock-roman-hotel",
        "location": "CANNOCK",
        "venue": "ROMAN HOTEL",
        "mapUrl": "https://www.google.com/maps/search/?api=1&query=Roman+Hotel+Cannock+UK",
        "lat": 52.6906,
        "lng": -2.0301
    },
    {
        "id": "chichester-park-hotel-evening",
        "location": "CHICHESTER",
        "venue": "PARK HOTEL",
        "mapUrl": "https://www.google.com/maps/search/?api=1&query=Park+Hotel+Chichester+UK",
        "lat": 50.8376,
        "lng": -0.7749
    },
    {
        "id": "crewe-arms-hotel",
        "location": "CREWE",
        "venue": "CREWE ARMS",
        "mapUrl": "https://www.google.com/maps/search/?api=1&query=Crewe+Arms+Hotel",
        "lat": 53.0900,
        "lng": -2.432
    },
    {
        "id": "dalton-crooklands-brow",
        "location": "DALTON",
        "venue": "CROOKLANDS BROW HOTEL",
        "mapUrl": "https://www.google.com/maps/search/?api=1&query=Dalton+Crooklands+Brow",
        "lat": 54.1593,
        "lng": -3.1710
    },
    {
        "id": "exeter-hampton-by-hilton",
        "location": "EXETER",
        "venue": "HAMPTION BY HILTON",
        "mapUrl": "https://www.google.com/maps/search/?api=1&query=Hampton+By+Hilton+Exeter",
        "lat": 50.7293,
        "lng": 3.4037
    },
    {
        "id": "faversham-kiln-court",
        "location": "FAVERSHAM",
        "venue": "KILN COURT",
        "mapUrl": "https://www.google.com/maps/search/?api=1&query=Kiln+Court+Faversham",
        "lat": 51.3168,
        "lng": 0.8706
    },
    {
        "id": "horley-four-points-hotel",
        "location": "HORLEY",
        "venue": "FOUR POINTS HOTEL",
        "mapUrl": "https://www.google.com/maps/search/?api=1&query=Four+Points+Hotel+Horley",
        "lat": 51.1817,
        "lng": -0.1638
    },
    {
        "id": "hull-royal-hotel",
        "location": "HULL",
        "venue": "ROYAL HOTEL",
        "mapUrl": "https://www.google.com/maps/search/?api=1&query=Royal+Hotel+Hull",
        "lat": 53.7440, 
        "lng": -0.3450
    },
    {
        "id": "long-eaton-best-western",
        "location": "LONG EATON",
        "venue": "BEST WESTERN HOTEL",
        "mapUrl": "https://www.google.com/maps/search/?api=1&query=Best+Western+Long+Eaton",
        "lat": 52.9095, 
        "lng": -1.2993
    },
    {
        "id": "mold-wrexham-hotel",
        "location": "MOLD",
        "venue": "WREXHAM STREET",
        "mapUrl": "https://www.google.com/maps/search/?api=1&query=Wrexham+Street+Mold",
        "lat": 53.1650, 
        "lng": -3.1405
    },    {
        "id": "newcastle-new-bridge-hotel",
        "location": "NEWCASTLE",
        "venue": "NEW BRIDGE HOTEL",
        "mapUrl": "https://www.google.com/maps/search/?api=1&query=New+Bridge+Hotel+Newcastle",
        "lat": 54.9783,
        "lng": -1.6178
    },
    {
        "id": "nuneaton-town-hall",
        "location": "NUNEATON",
        "venue": "TOWN HALL",
        "mapUrl": "https://www.google.com/maps/search/?api=1&query=Town+Hall+Nuneaton",
        "lat": 52.5225,
        "lng": -1.4681
    },
    {
        "id": "oldbury-ibis",
        "location": "OLDBURY",
        "venue": "IBIS",
        "mapUrl": "https://www.google.com/maps/search/?api=1&query=Ibis+Hotel+Oldbury",
        "lat": 52.5089,
        "lng": -2.0147
    },
    {
        "id": "oxford-carfax-tower",
        "location": "OXFORD",
        "venue": "CARFAX TOWER",
        "mapUrl": "https://www.google.com/maps/search/?api=1&query=Carfax+Tower+Oxford",
        "lat": 51.7520,
        "lng": -1.2577
    },
    {
        "id": "sheffield-holiday-inn-express",
        "location": "SHEFFIELD",
        "venue": "HOLIDAY INN EXPRESS",
        "mapUrl": "https://www.google.com/maps/search/?api=1&query=Holiday+Inn+Express+Sheffield",
        "lat": 53.3811,
        "lng": -1.4701
    },
    {
        "id": "stockport-britannia",
        "location": "STOCKPORT",
        "venue": "BRITANNIA",
        "mapUrl": "https://www.google.com/maps/search/?api=1&query=Britannia+Hotel+Stockport",
        "lat": 53.4106,
        "lng": -2.1575
    },
    {
        "id": "southampton-m27-bridge",
        "location": "SOUTHAMPTON",
        "venue": "M27 BRIDGE",
        "mapUrl": "https://www.google.com/maps/search/?api=1&query=M27+Bridge+Southampton",
        "lat": 50.9097,
        "lng": -1.4044
    },
    {
        "id": "wakefield-cedar-court-hotel",
        "location": "WAKEFIELD",
        "venue": "CEDAR COURT HOTEL",
        "mapUrl": "https://www.google.com/maps/search/?api=1&query=Cedar+Court+Hotel+Wakefield",
        "lat": 53.6833,
        "lng": -1.5000
    },
    {
        "id": "woolston-holiday-inn",
        "location": "WOOLSTON",
        "venue": "HOLIDAY INN",
        "mapUrl": "https://www.google.com/maps/search/?api=1&query=Holiday+Inn+Woolston",
        "lat": 50.8833,
        "lng": -1.3667
    },
    {
        "id": "bristol-hamilton-by-hilton",
        "location": "BRISTOL",
        "venue": "HAMILTON BY HILTON",
        "mapUrl": "https://www.google.com/maps/search/?api=1&query=Hamilton+by+Hilton+Bristol",
        "lat": 51.4545,
        "lng": -2.5879
    },
    {
        "id": "dudley-quality-hotel",
        "location": "DUDLEY",
        "venue": "QUALITY HOTEL",
        "mapUrl": "https://www.google.com/maps/search/?api=1&query=Quality+Hotel+Dudley",
        "lat": 52.5122,
        "lng": -2.0811
    },
    {
        "id": "epping-bell-hotel",
        "location": "EPPING",
        "venue": "BELL HOTEL",
        "mapUrl": "https://www.google.com/maps/search/?api=1&query=Bell+Hotel+Epping",
        "lat": 51.6944,
        "lng": 0.1042
    },
    {
        "id": "falkirk-falkirk-council-unison",
        "location": "FALKIRK",
        "venue": "FALKIRK COUNCIL UNISON",
        "mapUrl": "https://www.google.com/maps/search/?api=1&query=Falkirk+Council+Unison+Falkirk",
        "lat": 56.0019,
        "lng": -3.7839
    },
    {
        "id": "fallowfield-manchester-south",
        "location": "FALLOWFIELD",
        "venue": "MANCHESTER SOUTH",
        "mapUrl": "https://www.google.com/maps/search/?api=1&query=Manchester+South+Fallowfield",
        "lat": 53.4403,
        "lng": -2.2161
    },
    {
        "id": "london-britannia-canary-wharf",
        "location": "LONDON",
        "venue": "BRITANNIA CANARY WHARF",
        "mapUrl": "https://www.google.com/maps/search/?api=1&query=Britannia+Canary+Wharf+London",
        "lat": 51.5074,
        "lng": -0.0278
    },
    {
        "id": "norwich-the-norkie",
        "location": "NORWICH",
        "venue": "THE NORKIE",
        "mapUrl": "https://www.google.com/maps/search/?api=1&query=The+Norkie+Norwich",
        "lat": 52.6309,
        "lng": 1.2974
    },
    {
        "id": "plymouth-royal-parade",
        "location": "PLYMOUTH",
        "venue": "ROYAL PARADE",
        "mapUrl": "https://www.google.com/maps/search/?api=1&query=Royal+Parade+Plymouth",
        "lat": 50.3755,
        "lng": -4.1427
    }
]
