[
    {
        "id": "163-marsh-wall-london-e14-9sj-britannia-hotel",
        "location": "163 MARSH WALL, LONDON, E14 9SJ",
        "venue": "BRITANNIA HOTEL",
        "lat": 51.5018377,
        "lng": -0.0235568
    },
    {
        "id": "altrincham-cresta-court",
        "location": "ALTRINCHAM",
        "venue": "CRESTA COURT HOTEL",
        "lat": 53.39072560178334,
        "lng": -2.3501626240187683
    },
    {
        "id": "blackpool-britannia-metropole",
        "location": "BLACKPOOL",
        "venue": "BRITANNIA METROPOLE",
        "lat": 53.82076868540347,
        "lng": -3.0553454093925323
    },
    {
        "id": "bournemouth-roundhouse",
        "location": "BOURNEMOUTH",
        "venue": "ROUNDHOUSE",
        "lat": 50.72129825921555,
        "lng": -1.866489717276996
    },
    {
        "id": "bristol-hamilton-by-hilton",
        "location": "BRISTOL",
        "venue": "HAMILTON BY HILTON",
        "lat": 51.45968269559015,
        "lng": -2.5888431728426147
    },
    {
        "id": "cannock-roman-hotel",
        "location": "CANNOCK",
        "venue": "ROMAN HOTEL",
        "lat": 52.67995451585906,
        "lng": -2.05299172958631
    },
    {
        "id": "chelmsford-tindal-square",
        "location": "Chelmsford",
        "venue": "Tindal Square",
        "lat": 51.734536365898244,
        "lng": 0.47247271921252454
    },
    {
        "id": "chelmsford-springfield-road",
        "location": "CHELMSFORD",
        "venue": "SPRINGFIELD ROAD",
        "lat": 51.7394588,
        "lng": 0.4887645
    },
    {
        "id": "cheltenham-citrus-hotel",
        "location": "CHELTENHAM",
        "venue": "Citrus Hotel",
        "lat": 51.898065037993064,
        "lng": -2.073172738787983
    },
    {
        "id": "cheshunt-council-offices",
        "location": "CHESHUNT",
        "venue": "COUNCIL OFFICES",
        "lat": 51.7029973,
        "lng": -0.0480176
    },
    {
        "id": "cheshunt-marriott-delta",
        "location": "CHESHUNT",
        "venue": "MARRIOTT DELTA HOTEL",
        "lat": 51.7205230478307,
        "lng": -0.032006390277519024
    },
    {
        "id": "chichester-park-hotel",
        "location": "CHICHESTER",
        "venue": "PARK HOTEL",
        "lat": 50.84627744377054,
        "lng": -0.7567736933513585
    },
    {
        "id": "colchester-town-hall",
        "location": "COLCHESTER",
        "venue": "TOWN HALL",
        "lat": 51.8896962,
        "lng": 0.8991485
    },
    {
        "id": "crewe-arms-hotel",
        "location": "CREWE",
        "venue": "CREWE ARMS",
        "lat": 53.090144095084554,
        "lng": -2.4326039030956936
    },
    {
        "id": "crowborough-army-barracks",
        "location": "Crowborough",
        "venue": "Army Barracks",
        "lat": 51.04422840950434,
        "lng": 0.1410757908726555
    },
    {
        "id": "dalton-crooklands-brow",
        "location": "DALTON",
        "venue": "CROOKLANDS BROW HOTEL",
        "lat": 54.159403548683436,
        "lng": -3.171051170492159
    },
    {
        "id": "dudley-quality-hotel",
        "location": "DUDLEY",
        "venue": "QUALITY HOTEL",
        "lat": 52.51285456014217,
        "lng": -2.0675731002099265
    },
    {
        "id": "durham-county-hall",
        "location": "DURHAM",
        "venue": "County Hall",
        "lat": 54.785551084523696,
        "lng": -1.5856913134592934
    },
    {
        "id": "epping-bell-hotel",
        "location": "EPPING",
        "venue": "BELL HOTEL",
        "lat": 51.69214500517931,
        "lng": 0.09623138879111577
    },
    {
        "id": "exeter-hampton-by-hilton",
        "location": "EXETER",
        "venue": "HAMPTION BY HILTON",
        "lat": 50.729438326183384,
        "lng": -3.4037858550619795
    },
    {
        "id": "falkirk-falkirk-council-unison",
        "location": "FALKIRK",
        "venue": "FALKIRK COUNCIL UNISON",
        "lat": 56.00071984791773,
        "lng": -3.785625193528384
    },
    {
        "id": "fallowfield-manchester-south",
        "location": "FALLOWFIELD",
        "venue": "MANCHESTER SOUTH",
        "lat": 53.439644503146496,
        "lng": -2.2207193554533395
    },
    {
        "id": "faversham-kiln-court",
        "location": "FAVERSHAM",
        "venue": "KILN COURT",
        "lat": 51.316919659992955,
        "lng": 0.8706425567765709
    },
    {
        "id": "gloucester-ibis-hotel",
        "location": "GLOUCESTER",
        "venue": "Ibis Hotel",
        "lat": 51.86483205190941,
        "lng": -2.2107237039550993
    },
    {
        "id": "hillingdon-mulberry-parade",
        "location": "HILLINGDON",
        "venue": "MULBERRY PARADE",
        "lat": 51.5045665,
        "lng": -0.4574819
    },
    {
        "id": "hoddeston-hoddeston-clock-tower",
        "location": "HODDESTON",
        "venue": "HODDESTON CLOCK TOWER",
        "lat": 51.761585,
        "lng": -0.0111597
    },
    {
        "id": "horley-four-points-hotel",
        "location": "HORLEY",
        "venue": "FOUR POINTS HOTEL",
        "lat": 51.181746647760626,
        "lng": -0.1639899172567548
    },
    {
        "id": "hull-royal-hotel",
        "location": "HULL",
        "venue": "ROYAL HOTEL",
        "lat": 53.744130706289425,
        "lng": -0.34504296235937476
    },
    {
        "id": "leeds-yorkshire-gateway-hotel",
        "location": "LEEDS",
        "venue": "YORKSHIRE GATEWAY HOTEL",
        "lat": 53.7664089,
        "lng": -1.2894901
    },
    {
        "id": "london-blackfriars-station-to-waterloo",
        "location": "LONDON",
        "venue": "BLACKFRIARS STATION TO WATERLOO",
        "lat": 51.50840675750345,
        "lng": -0.1042574236504912
    },
    {
        "id": "london-britannia-canary-wharf",
        "location": "LONDON",
        "venue": "BRITANNIA CANARY WHARF",
        "lat": 51.50194338768638,
        "lng": -0.023336945552232275
    },
    {
        "id": "long-eaton-best-western",
        "location": "LONG EATON",
        "venue": "BEST WESTERN HOTEL",
        "lat": 52.90953482586874,
        "lng": -1.299318233615059
    },
    {
        "id": "loughton-police-station",
        "location": "LOUGHTON",
        "venue": "POLICE STATION",
        "lat": 51.6463861,
        "lng": 0.0535654
    },
    {
        "id": "manchester-central-park",
        "location": "Manchester",
        "venue": "Central Park",
        "lat": 53.49888400124158,
        "lng": -2.200909093704403
    },
    {
        "id": "mold-wrexham-hotel",
        "location": "MOLD",
        "venue": "WREXHAM STREET",
        "lat": 53.16508917758825,
        "lng": -3.140608652435582
    },
    {
        "id": "newcastle-new-bridge-hotel",
        "location": "NEWCASTLE",
        "venue": "NEW BRIDGE HOTEL",
        "lat": 54.974707206483245,
        "lng": -1.6077950183664538
    },
    {
        "id": "norwich-the-norkie",
        "location": "NORWICH",
        "venue": "THE NORKIE",
        "lat": 52.637113916335686,
        "lng": 1.2166130770083652
    },
    {
        "id": "nuneaton-town-hall",
        "location": "NUNEATON",
        "venue": "TOWN HALL",
        "lat": 52.52189726534407,
        "lng": -1.467482534219599
    },
    {
        "id": "oldbury-ibis",
        "location": "OLDBURY",
        "venue": "IBIS",
        "lat": 52.49121434792427,
        "lng": -2.02183243843053
    },
    {
        "id": "oldham-the-victoria-hotel",
        "location": "OLDHAM",
        "venue": "THE VICTORIA HOTEL",
        "lat": 53.522357,
        "lng": -2.156139
    },
    {
        "id": "oxford-carfax-tower",
        "location": "OXFORD",
        "venue": "CARFAX TOWER",
        "lat": 51.751918584787056,
        "lng": -1.2580774336453246
    },
    {
        "id": "perth-queens-hotel",
        "location": "PERTH",
        "venue": "Queens Hotel",
        "lat": 56.39274359879983,
        "lng": -3.437447846424951
    },
    {
        "id": "peterborough-dragonfly-hotel",
        "location": "PETERBOROUGH",
        "venue": "DRAGONFLY HOTEL",
        "lat": 52.5711644,
        "lng": -0.2676234
    },
    {
        "id": "plymouth-royal-parade",
        "location": "PLYMOUTH",
        "venue": "ROYAL PARADE",
        "lat": 50.3702824620142,
        "lng": -4.142397173249416
    },
    {
        "id": "portsmouth-royal-beach",
        "location": "PORTSMOUTH",
        "venue": "ROYAL BEACH",
        "lat": 50.77960348702557,
        "lng": -1.0760812200034668
    },
    {
        "id": "rhoose-holiday-inn-carfiff-airport",
        "location": "RHOOSE",
        "venue": "HOLIDAY INN CARDIFF AIRPORT",
        "lat": 51.39791271385114,
        "lng": -3.3335754988016557
    },
    {
        "id": "sheffield-holiday-inn-express",
        "location": "SHEFFIELD",
        "venue": "HOLIDAY INN EXPRESS",
        "lat": 53.3861962150937,
        "lng": -1.4604784304684373
    },
    {
        "id": "southamption-leonardo-hotel-so15-0lg",
        "location": "SOUTHAMPTION",
        "venue": "LEONARDO HOTEL, SO15 0LG",
        "lat": 50.91763523802282,
        "lng": -1.462227845280924
    },
    {
        "id": "southampton-bargate",
        "location": "SOUTHAMPTON",
        "venue": "BARGATE",
        "lat": 50.902664401608476,
        "lng": -1.4042584690466375
    },
    {
        "id": "southampton-highfield-house",
        "location": "SOUTHAMPTON",
        "venue": "HIGHFIELD HOUSE HOTEL",
        "lat": 50.92779986302174,
        "lng": -1.3916862327022155
    },
    {
        "id": "southampton-m27-bridge",
        "location": "SOUTHAMPTON",
        "venue": "M27 BRIDGE",
        "lat": 50.90195732477989,
        "lng": -1.314455496428631
    },
    {
        "id": "stevenage-ibis-hotel",
        "location": "STEVENAGE",
        "venue": "IBIS HOTEL",
        "lat": 51.90341894740491,
        "lng": -0.20371979629010822
    },
    {
        "id": "stockport-britannia",
        "location": "STOCKPORT",
        "venue": "BRITANNIA",
        "lat": 53.39893629306522,
        "lng": -2.1350502420897057
    },
    {
        "id": "wakefield-cedar-court-hotel",
        "location": "WAKEFIELD",
        "venue": "CEDAR COURT HOTEL",
        "lat": 53.64903620489205,
        "lng": -1.5320281450416775
    },
    {
        "id": "warwick-county-council-offices",
        "location": "WARWICK",
        "venue": "COUNTY COUNCIL OFFICES",
        "lat": 52.282555700560735,
        "lng": -1.590113726580797
    },
    {
        "id": "westminster-westminster",
        "location": "WESTMINSTER",
        "venue": "WESTMINSTER",
        "lat": 51.4999639,
        "lng": -0.1279826
    },
    {
        "id": "widnes-the-hillcrest-hotel",
        "location": "WIDNES",
        "venue": "THE HILLCREST HOTEL",
        "lat": 53.3899447,
        "lng": -2.7431592
    },
    {
        "id": "wigan-moon-under-water",
        "location": "WIGAN",
        "venue": "MOON UNDER WATER",
        "lat": 53.5464007,
        "lng": -2.6313097
    },
    {
        "id": "wolverhampton-goldthorn-hotel",
        "location": "WOLVERHAMPTON",
        "venue": "GOLDTHORN HOTEL",
        "lat": 52.5747378,
        "lng": -2.1372016
    },
    {
        "id": "woolston-holiday-inn",
        "location": "WOOLSTON",
        "venue": "HOLIDAY INN",
        "lat": 53.39932164430549,
        "lng": -2.5133907961977333
    },
    {
        "id": "wrexham-guildhall",
        "location": "WREXHAM",
        "venue": "The Guildhall",
        "lat": 53.04756316128925,
        "lng": -2.9937289577466797
    }
]