[
    {
        "id": "altrincham-cresta-court",
        "location": "ALTRINCHAM",
        "venue": "CRESTA COURT HOTEL",
        "lat": 53.39072560178334,
        "lng": -2.3501626240187683
    },
    {
        "id": "bournemouth-roundhouse",
        "location": "BOURNEMOUTH",
        "venue": "ROUNDHOUSE",
        "lat": 50.72129825921555,
        "lng": -1.866489717276996
    },
    {
        "id": "cheshunt-marriott-delta",
        "location": "CHESHUNT",
        "venue": "MARRIOTT DELTA HOTEL",
        "lat": 51.7205230478307,
        "lng": -0.032006390277519024
    },
    {
        "id": "chichester-park-hotel",
        "location": "CHICHESTER",
        "venue": "PARK HOTEL",
        "lat": 50.84627744377054,
        "lng": -0.7567736933513585
    },
    {
        "id": "portsmouth-royal-beach",
        "location": "PORTSMOUTH",
        "venue": "ROYAL BEACH",
        "lat": 50.77960348702557,
        "lng": -1.0760812200034668
    },
    {
        "id": "rhoose-holiday-inn-carfiff-airport",
        "location": "RHOOSE",
        "venue": "HOLIDAY INN CARDIFF AIRPORT",
        "lat": 51.39791271385114,
        "lng": -3.3335754988016557
    },
    {
        "id": "southampton-highfield-house",
        "location": "SOUTHAMPTON",
        "venue": "HIGHFIELD HOUSE HOTEL",
        "lat": 50.92779986302174,
        "lng": -1.3916862327022155
    },
    {
        "id": "warwick-county-council-offices",
        "location": "WARWICK",
        "venue": "COUNTY COUNCIL OFFICES",
        "lat": 52.282555700560735,
        "lng": -1.590113726580797
    },
    {
        "id": "blackpool-britannia-metropole",
        "location": "BLACKPOOL",
        "venue": "BRITANNIA METROPOLE",
        "lat": 53.82076868540347,
        "lng": -3.0553454093925323
    },
    {
        "id": "cannock-roman-hotel",
        "location": "CANNOCK",
        "venue": "ROMAN HOTEL",
        "lat": 52.67995451585906,
        "lng": -2.05299172958631
    },
    {
        "id": "crewe-arms-hotel",
        "location": "CREWE",
        "venue": "CREWE ARMS",
        "lat": 53.090144095084554,
        "lng": -2.4326039030956936
    },
    {
        "id": "dalton-crooklands-brow",
        "location": "DALTON",
        "venue": "CROOKLANDS BROW HOTEL",
        "lat": 54.159403548683436,
        "lng": -3.171051170492159
    },
    {
        "id": "exeter-hampton-by-hilton",
        "location": "EXETER",
        "venue": "HAMPTION BY HILTON",
        "lat": 50.729438326183384,
        "lng": -3.4037858550619795
    },
    {
        "id": "faversham-kiln-court",
        "location": "FAVERSHAM",
        "venue": "KILN COURT",
        "lat": 51.316919659992955,
        "lng": 0.8706425567765709
    },
    {
        "id": "horley-four-points-hotel",
        "location": "HORLEY",
        "venue": "FOUR POINTS HOTEL",
        "lat": 51.181746647760626,
        "lng": -0.1639899172567548
    },
    {
        "id": "hull-royal-hotel",
        "location": "HULL",
        "venue": "ROYAL HOTEL",
        "lat": 53.744130706289425,
        "lng": -0.34504296235937476
    },
    {
        "id": "long-eaton-best-western",
        "location": "LONG EATON",
        "venue": "BEST WESTERN HOTEL",
        "lat": 52.90953482586874,
        "lng": -1.299318233615059
    },
    {
        "id": "mold-wrexham-hotel",
        "location": "MOLD",
        "venue": "WREXHAM STREET",
        "lat": 53.16508917758825,
        "lng": -3.140608652435582
    },
    {
        "id": "newcastle-new-bridge-hotel",
        "location": "NEWCASTLE",
        "venue": "NEW BRIDGE HOTEL",
        "lat": 54.974707206483245,
        "lng": -1.6077950183664538
    },
    {
        "id": "nuneaton-town-hall",
        "location": "NUNEATON",
        "venue": "TOWN HALL",
        "lat": 52.52189726534407,
        "lng": -1.467482534219599
    },
    {
        "id": "oldbury-ibis",
        "location": "OLDBURY",
        "venue": "IBIS",
        "lat": 52.49121434792427,
        "lng": -2.02183243843053
    },
    {
        "id": "oxford-carfax-tower",
        "location": "OXFORD",
        "venue": "CARFAX TOWER",
        "lat": 51.751918584787056,
        "lng": -1.2580774336453246
    },
    {
        "id": "sheffield-holiday-inn-express",
        "location": "SHEFFIELD",
        "venue": "HOLIDAY INN EXPRESS",
        "lat": 53.3861962150937,
        "lng": -1.4604784304684373
    },
    {
        "id": "stockport-britannia",
        "location": "STOCKPORT",
        "venue": "BRITANNIA",
        "lat": 53.39893629306522,
        "lng": -2.1350502420897057
    },
    {
        "id": "southampton-m27-bridge",
        "location": "SOUTHAMPTON",
        "venue": "M27 BRIDGE",
        "lat": 50.90195732477989,
        "lng": -1.314455496428631
    },
    {
        "id": "wakefield-cedar-court-hotel",
        "location": "WAKEFIELD",
        "venue": "CEDAR COURT HOTEL",
        "lat": 53.64903620489205,
        "lng": -1.5320281450416775
    },
    {
        "id": "woolston-holiday-inn",
        "location": "WOOLSTON",
        "venue": "HOLIDAY INN",
        "lat": 53.39932164430549,
        "lng": -2.5133907961977333
    },
    {
        "id": "bristol-hamilton-by-hilton",
        "location": "BRISTOL",
        "venue": "HAMILTON BY HILTON",
        "lat": 51.45968269559015,
        "lng": -2.5888431728426147
    },
    {
        "id": "dudley-quality-hotel",
        "location": "DUDLEY",
        "venue": "QUALITY HOTEL",
        "lat": 52.51285456014217,
        "lng": -2.0675731002099265
    },
    {
        "id": "epping-bell-hotel",
        "location": "EPPING",
        "venue": "BELL HOTEL",
        "lat": 51.69214500517931,
        "lng": 0.09623138879111577
    },
    {
        "id": "falkirk-falkirk-council-unison",
        "location": "FALKIRK",
        "venue": "FALKIRK COUNCIL UNISON",
        "lat": 56.00071984791773,
        "lng": -3.785625193528384
    },
    {
        "id": "fallowfield-manchester-south",
        "location": "FALLOWFIELD",
        "venue": "MANCHESTER SOUTH",
        "lat": 53.439644503146496,
        "lng": -2.2207193554533395
    },
    {
        "id": "london-britannia-canary-wharf",
        "location": "LONDON",
        "venue": "BRITANNIA CANARY WHARF",
        "lat": 51.50194338768638,
        "lng": -0.023336945552232275
    },
    {
        "id": "norwich-the-norkie",
        "location": "NORWICH",
        "venue": "THE NORKIE",
        "lat": 52.637113916335686,
        "lng": 1.2166130770083652
    },
    {
        "id": "plymouth-royal-parade",
        "location": "PLYMOUTH",
        "venue": "ROYAL PARADE",
        "lat": 50.3702824620142,
        "lng": -4.142397173249416
    },
    {
        "id": "london-blackfriars-station-to-waterloo",
        "location": "LONDON",
        "venue": "BLACKFRIARS STATION TO WATERLOO",
        "lat": 51.50840675750345,
        "lng": -0.1042574236504912
    },
    {
        "id": "163-marsh-wall-london-e14-9sj-britannia-hotel",
        "location": "163 MARSH WALL, LONDON, E14 9SJ",
        "venue": "BRITANNIA HOTEL",
        "lat": 51.5018377,
        "lng": -0.0235568
    }
]